{
  "locations": [
    {
      "name": "Starbucks",
      "lat": 20.73475,
      "lng": -103.455378
    },
    {
      "name": "OXXO",
      "lat": 20.733991,
      "lng": -103.456324
    },
    {
      "name": "Cafeteria",
      "lat": 20.733228,
      "lng": -103.454755
    },
    {
      "name": "Subway",
      "lat": 20.734678,
      "lng": -103.457691
    },
    {
      "name": "Juvie Jus",
      "lat": 20.734743,
      "lng": -103.457694
    },
    {
      "name": "Yum Yum",
      "lat": 20.734603,
      "lng": -103.457707
    },
    {
      "name": "Güich",
      "lat": 20.735217,
      "lng": -103.455598
    },
    {
      "name": "Yum Yum",
      "lat": 20.7353,
      "lng": -103.455588
    },
    {
      "name": "La Selva",
      "lat": 20.735377,
      "lng": -103.455571
    },
    {
      "name": "Güich",
      "lat": 20.734519,
      "lng": -103.452744
    },
    {
      "name": "Juvie Jus",
      "lat": 20.734745,
      "lng": -103.452762
    }
  ]
}
